[
  {
    "id": "giza-necropolis",
    "name": "Giza Necropolis (Pyramids & Sphinx)",
    "visitDate": "Jan 30-31",
    "rating": 4.8,
    "reviews": "50,000+",
    "address": "Al Haram Street, Giza Plateau, Giza, Egypt",
    "hours": "8am-5pm (Winter); 7am-6pm (Summer)",
    "entry": "700 EGP (~£11); +1500 EGP Great Pyramid interior",
    "mapUrl": "https://maps.google.com/?q=Giza+Pyramids+Egypt",
    "description": "The last surviving Wonder of the Ancient World. Three pyramids (Khufu, Khafre, Menkaure), the Great Sphinx, and ancient tombs on a desert plateau.",
    "region": "giza",
    "coordinates": [29.9792, 31.1342],
    "imageUrl": "https://upload.wikimedia.org/wikipedia/commons/a/af/All_Giza_Pyramids.jpg"
  },
  {
    "id": "abu-simbel",
    "name": "Abu Simbel Temples",
    "visitDate": "Feb 2",
    "rating": 4.8,
    "reviews": "10,000+",
    "address": "Abu Simbel, Aswan Governorate, Egypt",
    "hours": "6am-4pm; Ramadan 7am-3pm",
    "entry": "750 EGP (~£12)",
    "mapUrl": "https://maps.google.com/?q=Abu+Simbel+Temple+Egypt",
    "description": "Two massive rock temples built by Ramses II, carved into a mountainside. Famously relocated by UNESCO in the 1960s to save them from flooding.",
    "region": "aswan",
    "coordinates": [22.3372, 31.6258],
    "imageUrl": "https://upload.wikimedia.org/wikipedia/commons/f/f4/Abu_Simbel%2C_Ramesses_Temple%2C_front%2C_Egypt%2C_Oct_2004.jpg"
  },
  {
    "id": "philae",
    "name": "Philae Temple (Temple of Isis)",
    "visitDate": "Feb 2 (optional)",
    "rating": 4.8,
    "reviews": "8,000+",
    "address": "Agilkia Island, 8km south of Aswan",
    "hours": "7am-4pm",
    "entry": "550 EGP (~£9) + 800 EGP boat (~£13)",
    "mapUrl": "https://maps.google.com/?q=Philae+Temple+Aswan",
    "description": "Beautiful island temple dedicated to goddess Isis. Relocated stone-by-stone by UNESCO after Aswan Dam construction.",
    "region": "aswan",
    "coordinates": [24.0262, 32.8841],
    "imageUrl": "https://upload.wikimedia.org/wikipedia/commons/4/4a/Philae_Temple_Egypt.JPG"
  },
  {
    "id": "kom-ombo",
    "name": "Kom Ombo Temple",
    "visitDate": "Feb 3 (en route)",
    "rating": 4.7,
    "reviews": "5,000",
    "address": "Kom Ombo, 45km north of Aswan",
    "hours": "7am-5pm (9pm for night visits)",
    "entry": "~300 EGP (~£5)",
    "mapUrl": "https://maps.google.com/?q=Kom+Ombo+Temple+Egypt",
    "description": "Unique double temple dedicated to Sobek (crocodile god) and Horus. Perfectly symmetrical with two of everything. Includes crocodile museum.",
    "region": "aswan",
    "coordinates": [24.4522, 32.9281],
    "imageUrl": "https://upload.wikimedia.org/wikipedia/commons/1/1e/S_F-E-CAMERON_2006-10-EGYPT-KOM_OMBO-0041.JPG"
  },
  {
    "id": "edfu",
    "name": "Edfu Temple (Temple of Horus)",
    "visitDate": "Feb 3 (en route)",
    "rating": 4.8,
    "reviews": "6,400",
    "address": "West bank of Nile, Edfu",
    "hours": "7am-4pm (Oct-May)",
    "entry": "550 EGP (~£9)",
    "mapUrl": "https://maps.google.com/?q=Edfu+Temple+Egypt",
    "description": "Best-preserved ancient temple in Egypt. Dedicated to Horus, the falcon god. Second largest temple after Karnak.",
    "region": "aswan",
    "coordinates": [24.9781, 32.8734],
    "imageUrl": "https://upload.wikimedia.org/wikipedia/commons/6/60/Edfu_Temple_2.jpg"
  },
  {
    "id": "valley-of-kings",
    "name": "Valley of the Kings",
    "visitDate": "Feb 4",
    "rating": 4.7,
    "reviews": "20,000+",
    "address": "West Bank, Luxor",
    "hours": "6am-4pm (Winter)",
    "entry": "770 EGP (~£12) for 3 tombs; +700 EGP Tutankhamun",
    "mapUrl": "https://maps.google.com/?q=Valley+of+the+Kings+Luxor",
    "description": "Royal burial ground for 500 years. Contains 63 tombs including Tutankhamun. Vivid painted walls depicting the afterlife journey.",
    "region": "luxor",
    "coordinates": [25.7402, 32.6014],
    "imageUrl": "https://upload.wikimedia.org/wikipedia/commons/9/96/Valley_of_the_Kings_%28Luxor%2C_Egypt%29.jpg"
  },
  {
    "id": "hatshepsut",
    "name": "Mortuary Temple of Hatshepsut",
    "visitDate": "Feb 4",
    "rating": 4.8,
    "reviews": "8,000+",
    "address": "Deir el-Bahari, West Bank, Luxor",
    "hours": "6am-4pm (Winter)",
    "entry": "300 EGP (~£5)",
    "mapUrl": "https://maps.google.com/?q=Hatshepsut+Temple+Luxor",
    "description": "Dramatic three-tiered temple built into cliffs for Egypt's female pharaoh. Unique colonnaded design.",
    "region": "luxor",
    "coordinates": [25.7381, 32.6066],
    "imageUrl": "https://upload.wikimedia.org/wikipedia/commons/9/9a/Deir_el-Bahari_0478.JPG"
  },
  {
    "id": "medinet-habu",
    "name": "Medinet Habu (Temple of Ramses III)",
    "visitDate": "Feb 4",
    "rating": 4.8,
    "reviews": "2,500",
    "address": "West Bank, Luxor",
    "hours": "6am-5pm",
    "entry": "~300 EGP (~£5)",
    "mapUrl": "https://maps.google.com/?q=Medinet+Habu+Luxor",
    "description": "Second largest temple in Egypt with best-preserved colour on reliefs. Often less crowded than Karnak—hidden gem.",
    "region": "luxor",
    "coordinates": [25.7194, 32.6011],
    "imageUrl": "https://upload.wikimedia.org/wikipedia/commons/0/0f/Medinet_Habu_Ramses_III._Tempel_Nordseite_06.jpg"
  },
  {
    "id": "karnak",
    "name": "Karnak Temple",
    "visitDate": "Feb 4",
    "rating": 4.8,
    "reviews": "15,000+",
    "address": "East Bank, 3km north of Luxor",
    "hours": "6am-5pm",
    "entry": "600 EGP (~£10)",
    "mapUrl": "https://maps.google.com/?q=Karnak+Temple+Luxor",
    "description": "Largest religious complex ever built. Massive Hypostyle Hall with 134 giant columns. Built over 2,000 years by 30 pharaohs.",
    "region": "luxor",
    "coordinates": [25.7188, 32.6573],
    "imageUrl": "https://upload.wikimedia.org/wikipedia/commons/4/4e/Karnak_Tempel_Vorhof.jpg"
  },
  {
    "id": "luxor-temple",
    "name": "Luxor Temple",
    "visitDate": "Feb 3 or 4",
    "rating": 4.8,
    "reviews": "12,000+",
    "address": "East Bank, Luxor city centre",
    "hours": "6am-10pm (illuminated at night)",
    "entry": "450 EGP (~£7)",
    "mapUrl": "https://maps.google.com/?q=Luxor+Temple+Egypt",
    "description": "City centre temple connected to Karnak by Avenue of Sphinxes. Stunning when floodlit at night.",
    "region": "luxor",
    "coordinates": [25.6996, 32.6390],
    "imageUrl": "https://upload.wikimedia.org/wikipedia/commons/5/58/Luxor_temple%2C_evening.jpg"
  },
  {
    "id": "dendera",
    "name": "Dendera Temple (Temple of Hathor)",
    "visitDate": "Optional day trip",
    "rating": 4.9,
    "reviews": "3,600",
    "address": "Qena, 60km north of Luxor",
    "hours": "7am-5pm",
    "entry": "~400 EGP (~£6)",
    "mapUrl": "https://maps.google.com/?q=Dendera+Temple+Egypt",
    "description": "Best-preserved temple ceiling in Egypt with famous zodiac. Dedicated to Hathor, goddess of love. Rare rooftop access.",
    "region": "daytrip",
    "coordinates": [26.1418, 32.6700],
    "imageUrl": "https://upload.wikimedia.org/wikipedia/commons/e/eb/Dendera_temple_complex.jpg"
  },
  {
    "id": "abydos",
    "name": "Temple of Abydos & Osireion",
    "visitDate": "Optional day trip",
    "rating": 4.8,
    "reviews": "470",
    "address": "Abydos, 160km north of Luxor",
    "hours": "8am-5pm",
    "entry": "~300 EGP (~£5)",
    "mapUrl": "https://maps.google.com/?q=Abydos+Temple+Egypt",
    "description": "Sacred burial site of Osiris. Temple of Seti I has finest reliefs in Egypt—still retaining original colours.",
    "region": "daytrip",
    "coordinates": [26.1850, 31.9191],
    "imageUrl": "https://upload.wikimedia.org/wikipedia/commons/6/6c/Abydos_Tempelanlage_Sethos_I._02.JPG"
  },
  {
    "id": "nubian-village",
    "name": "Nubian Village",
    "visitDate": "Feb 1 or 2",
    "rating": 4.2,
    "reviews": "174",
    "address": "West Bank, Aswan",
    "hours": "Daytime visits",
    "entry": "Free (tips expected)",
    "mapUrl": "https://maps.google.com/?q=Nubian+Village+Aswan",
    "description": "Colourful traditional Nubian community. Painted houses, friendly locals, henna tattoos, crocodile encounters.",
    "region": "aswan",
    "coordinates": [24.0889, 32.8899],
    "imageUrl": "https://upload.wikimedia.org/wikipedia/commons/d/da/Aswan_Nubian_village.jpg"
  }
]
